name,sido,sigungu,dong,lat,lon,tags,phone
포레스트 펫 추모관,서울특별시,강남구,수서동,37.4870,127.1010,개별 화장·추모실,02-1234-5678
하늘정원 반려동물 장례,서울특별시,송파구,장지동,37.4783,127.1260,24시간·픽업 서비스,02-222-3333
무지개다리 메모리얼 마포,서울특별시,마포구,상암동,37.5790,126.8900,개별 화장·상담,02-444-7777
남해 펫 메모리얼,부산광역시,해운대구,반송동,35.2150,129.1450,개별 화장·수목장,051-444-5555
부산 반려동물 추모공원,부산광역시,중구,영주동,35.1130,129.0350,봉안당·추모공원,051-666-7777
서면 펫 힐링센터,부산광역시,부산진구,양정동,35.1720,129.0750,개별 화장·상담,051-888-9999